city,lat,lng,country,iso2,admin,capital,population,population_proper
Kiev,50.433333,30.516667,Ukraine,UA,"Kyyiv, Misto",primary,2709000,1662508
Kharkiv,49.980814,36.252718,Ukraine,UA,Kharkivs’ka Oblast’,admin,1461000,1215127
Dnipro,48.459298,35.038648,Ukraine,UA,Dnipropetrovs’ka Oblast’,admin,1050000,848849
Odesa,46.463934,30.738551,Ukraine,UA,Odes’ka Oblast’,admin,991000,704001
Donets’k,47.991664,37.775928,Ukraine,UA,Donets’ka Oblast’,admin,988000,760275
L’viv,49.840661,24.030451,Ukraine,UA,L’vivs’ka Oblast’,admin,803880,717803
Zaporizhzhya,47.822892,35.190314,Ukraine,UA,Zaporiz’ka Oblast’,admin,788000,413557
Kryvyy Rih,47.911299,33.453925,Ukraine,UA,Dnipropetrovs’ka Oblast’,,652380,490907
Mykolayiv,46.965909,31.997403,Ukraine,UA,Mykolayivs’ka Oblast’,admin,510840,194995
Mariupol’,47.105705,37.533086,Ukraine,UA,Donets’ka Oblast’,,481626,351244
Luhans’k,48.567046,39.31706,Ukraine,UA,Luhans’ka Oblast’,admin,452000,365862
Khmel’nyts’kyy,49.421608,26.996529,Ukraine,UA,Khmel’nyts’ka Oblast’,admin,398346,245840
Horlivka,48.335761,38.05325,Ukraine,UA,Donets’ka Oblast’,,396885,278550
Sevastopol’,44.58828,33.5224,Ukraine,UA,"Sevastopol’, Misto",admin,379200,314465
Makiyivka,48.047816,37.925764,Ukraine,UA,Donets’ka Oblast’,,376610,261155
Simferopol’,44.957186,34.110787,Ukraine,UA,"Krym, Avtonomna Respublika",admin,358108,253657
Vinnytsya,49.232776,28.480968,Ukraine,UA,Vinnyts’ka Oblast’,admin,352115,347139
Kherson,46.655814,32.6178,Ukraine,UA,Khersons’ka Oblast’,admin,320477,236680
Poltava,49.593727,34.540733,Ukraine,UA,Poltavs’ka Oblast’,admin,317847,286588
Chernihiv,51.505507,31.284875,Ukraine,UA,Chernihivs’ka Oblast’,admin,307684,279629
Chernivtsi,48.291488,25.940341,Ukraine,UA,Chernivets’ka Oblast’,admin,298251,236250
Cherkasy,49.428536,32.06207,Ukraine,UA,Cherkas’ka Oblast’,admin,297568,273821
Sumy,50.921597,34.800294,Ukraine,UA,Sums’ka Oblast’,admin,294456,285146
Zhytomyr,50.264868,28.676691,Ukraine,UA,Zhytomyrs’ka Oblast’,admin,282192,274970
Rivne,50.623079,26.22743,Ukraine,UA,Rivnens’ka Oblast’,admin,255106,251416
Ternopil’,49.555887,25.605565,Ukraine,UA,Ternopil’s’ka Oblast’,admin,244768,235676
Ivano-Frankivs’k,48.921504,24.709716,Ukraine,UA,Ivano-Frankivs’ka Oblast’,admin,241239,204200
Kremenchuk,49.072005,33.427482,Ukraine,UA,Poltavs’ka Oblast’,minor,232742,186251
Luts’k,50.759319,25.342436,Ukraine,UA,Volyns’ka Oblast’,admin,213661,210299
Bila Tserkva,49.809386,30.112086,Ukraine,UA,Kyyivs’ka Oblast’,minor,199163,185674
Krasnotorka,48.682039,37.532662,Ukraine,UA,Donets’ka Oblast’,,184105,173700
Melitopol’,46.848912,35.365334,Ukraine,UA,Zaporiz’ka Oblast’,minor,158000,113700
Kerch,45.360696,36.470597,Ukraine,UA,"Krym, Avtonomna Respublika",,152195,115749
Uzhhorod,48.616667,22.3,Ukraine,UA,Zakarpats’ka Oblast’,admin,150832,117878
Nikopol’,47.571186,34.396369,Ukraine,UA,Dnipropetrovs’ka Oblast’,minor,130500,107720
Lysychans’k,48.904848,38.442066,Ukraine,UA,Luhans’ka Oblast’,,124421,111600
Drohobych,49.349908,23.505614,Ukraine,UA,L’vivs’ka Oblast’,minor,124269,79406
Berdyans’k,46.766436,36.798719,Ukraine,UA,Zaporiz’ka Oblast’,minor,118284,58534
Nizhyn,51.048014,31.886882,Ukraine,UA,Chernihivs’ka Oblast’,minor,116288,75499
Kam”yanets’-Podil’s’kyy,48.684503,26.585592,Ukraine,UA,Khmel’nyts’ka Oblast’,minor,114658,100000
Yevpatoriya,45.200908,33.366546,Ukraine,UA,"Krym, Avtonomna Respublika",,105223,75953
Konotop,51.240317,33.202633,Ukraine,UA,Sums’ka Oblast’,minor,103547,91798
Shostka,51.862956,33.469804,Ukraine,UA,Sums’ka Oblast’,minor,96825,85432
Brovary,50.518094,30.806712,Ukraine,UA,Kyyivs’ka Oblast’,minor,88506,66205
Uman’,48.748384,30.221841,Ukraine,UA,Cherkas’ka Oblast’,minor,87658,87582
Izmayil,45.349286,28.840794,Ukraine,UA,Odes’ka Oblast’,minor,83194,82485
Yalta,44.50218,34.166238,Ukraine,UA,"Krym, Avtonomna Respublika",,79509,74120
Kup”yans’k,49.710545,37.615169,Ukraine,UA,Kharkivs’ka Oblast’,minor,78870,78870
Korosten’,50.959369,28.638547,Ukraine,UA,Zhytomyrs’ka Oblast’,minor,72984,65000
Kovel’,51.215259,24.708669,Ukraine,UA,Volyns’ka Oblast’,minor,71301,66400
Illichivs’k,46.304949,30.654779,Ukraine,UA,Odes’ka Oblast’,,54102,53710
Voznesens’k,47.584959,31.332093,Ukraine,UA,Mykolayivs’ka Oblast’,minor,43996,42248
Dzhankoy,45.711677,34.392739,Ukraine,UA,"Krym, Avtonomna Respublika",minor,43879,41731
Artemivs’k,48.595594,37.999871,Ukraine,UA,Donets’ka Oblast’,minor,,
Tul’chyn,48.67448,28.846412,Ukraine,UA,Vinnyts’ka Oblast’,minor,,
Orativ,49.188893,29.526971,Ukraine,UA,Vinnyts’ka Oblast’,minor,,
Sofiyivka,48.048655,33.876175,Ukraine,UA,Dnipropetrovs’ka Oblast’,minor,,
Petropavlivka,48.456429,36.436699,Ukraine,UA,Dnipropetrovs’ka Oblast’,minor,,
Chornukhy,50.267317,32.941964,Ukraine,UA,Poltavs’ka Oblast’,minor,,
Verkhniy Rohachyk,47.250535,34.337973,Ukraine,UA,Khersons’ka Oblast’,minor,,
Z·hurivka,50.502756,31.784917,Ukraine,UA,Kyyivs’ka Oblast’,minor,,
Horodnya,51.890853,31.597414,Ukraine,UA,Chernihivs’ka Oblast’,minor,,
Kel’mentsi,48.465034,26.834571,Ukraine,UA,Chernivets’ka Oblast’,minor,,
Valky,49.835971,35.612229,Ukraine,UA,Kharkivs’ka Oblast’,minor,,
Borodyanka,50.644842,29.920103,Ukraine,UA,Kyyivs’ka Oblast’,minor,,
Lokachi,50.736995,24.649436,Ukraine,UA,Volyns’ka Oblast’,minor,,
Chechel’nyk,48.215087,29.367276,Ukraine,UA,Vinnyts’ka Oblast’,minor,,
Korop,51.566383,32.958609,Ukraine,UA,Chernihivs’ka Oblast’,minor,,
Lysyanka,49.25229,30.829463,Ukraine,UA,Cherkas’ka Oblast’,minor,,
Berdychiv,49.899285,28.602346,Ukraine,UA,Zhytomyrs’ka Oblast’,minor,,
Volodymyr-Volyns’kyy,50.852533,24.323645,Ukraine,UA,Volyns’ka Oblast’,minor,,
Pechenihy,49.871671,36.934718,Ukraine,UA,Kharkivs’ka Oblast’,minor,,
Pereyaslav-Khmel’nyts’kyy,50.067391,31.44969,Ukraine,UA,Kyyivs’ka Oblast’,minor,,
Okhtyrka,50.310359,34.898787,Ukraine,UA,Sums’ka Oblast’,minor,,
Nyzhni Sirohozy,46.848415,34.380442,Ukraine,UA,Khersons’ka Oblast’,minor,,
Vasyl’kiv,50.186925,30.313457,Ukraine,UA,Kyyivs’ka Oblast’,minor,,
Vasyl’kivka,48.206979,36.023649,Ukraine,UA,Dnipropetrovs’ka Oblast’,minor,,
Velyka Novosilka,47.845308,36.835343,Ukraine,UA,Donets’ka Oblast’,minor,,
Drabiv,49.960292,32.140698,Ukraine,UA,Cherkas’ka Oblast’,minor,,
Kobelyaky,49.148924,34.196526,Ukraine,UA,Poltavs’ka Oblast’,minor,,
Lityn,49.32509,28.080942,Ukraine,UA,Vinnyts’ka Oblast’,minor,,
Tomakivka,47.815692,34.741368,Ukraine,UA,Dnipropetrovs’ka Oblast’,minor,,
Frunzivka,47.33232,29.759027,Ukraine,UA,Odes’ka Oblast’,minor,,
Kostopil’,50.878408,26.45192,Ukraine,UA,Rivnens’ka Oblast’,minor,,
Krasnoarmiys’k,48.281976,37.175847,Ukraine,UA,Donets’ka Oblast’,minor,,
Kryve Ozero,47.952417,30.349282,Ukraine,UA,Mykolayivs’ka Oblast’,minor,,
Vysokopillya,47.491873,33.530611,Ukraine,UA,Khersons’ka Oblast’,minor,,
Mizhhir”ya,48.52458,23.505627,Ukraine,UA,Zakarpats’ka Oblast’,minor,,
Troyits’ke,49.914497,38.292771,Ukraine,UA,Luhans’ka Oblast’,minor,,
Veselynove,47.356659,31.234882,Ukraine,UA,Mykolayivs’ka Oblast’,minor,,
Zolotonosha,49.668321,32.040468,Ukraine,UA,Cherkas’ka Oblast’,minor,,
Baranivka,50.3,27.666667,Ukraine,UA,Zhytomyrs’ka Oblast’,minor,,
Karlivka,49.457232,35.129753,Ukraine,UA,Poltavs’ka Oblast’,minor,,
Tomashpil’,48.542563,28.516836,Ukraine,UA,Vinnyts’ka Oblast’,minor,,
Domanivka,47.631923,30.988515,Ukraine,UA,Mykolayivs’ka Oblast’,minor,,
Bohuslav,49.549391,30.874396,Ukraine,UA,Kyyivs’ka Oblast’,minor,,
Krasyliv,49.65186,26.972525,Ukraine,UA,Khmel’nyts’ka Oblast’,minor,,
Ostroh,50.329419,26.514252,Ukraine,UA,Rivnens’ka Oblast’,minor,,
Mukacheve,48.439187,22.717792,Ukraine,UA,Zakarpats’ka Oblast’,minor,,
Tarutyne,46.186356,29.15203,Ukraine,UA,Odes’ka Oblast’,minor,,
Kulykivka,51.37345,31.646606,Ukraine,UA,Chernihivs’ka Oblast’,minor,,
Oleksandriya,48.669614,33.115934,Ukraine,UA,Kirovohrads’ka Oblast’,minor,,
Ul’yanovka,48.331053,30.22702,Ukraine,UA,Kirovohrads’ka Oblast’,minor,,
Svatove,49.410287,38.15035,Ukraine,UA,Luhans’ka Oblast’,minor,,
Chernyakhiv,50.456524,28.67018,Ukraine,UA,Zhytomyrs’ka Oblast’,minor,,
Kehychivka,49.289436,35.763621,Ukraine,UA,Kharkivs’ka Oblast’,minor,,
Marhanets’,47.635427,34.627694,Ukraine,UA,Dnipropetrovs’ka Oblast’,minor,,
Khust,48.1793,23.299091,Ukraine,UA,Zakarpats’ka Oblast’,minor,,
Ratne,51.668301,24.530296,Ukraine,UA,Volyns’ka Oblast’,minor,,
Mena,51.521697,32.215683,Ukraine,UA,Chernihivs’ka Oblast’,minor,,
Kompaniyivka,48.251149,32.207949,Ukraine,UA,Kirovohrads’ka Oblast’,minor,,
Putyla,47.988688,25.094547,Ukraine,UA,Chernivets’ka Oblast’,minor,,
Yampil’,51.947069,33.783909,Ukraine,UA,Sums’ka Oblast’,minor,,
Novoazovs’k,47.115877,38.085189,Ukraine,UA,Donets’ka Oblast’,minor,,
Novoaydar,48.963911,39.005829,Ukraine,UA,Luhans’ka Oblast’,minor,,
Saky,45.134243,33.599965,Ukraine,UA,"Krym, Avtonomna Respublika",minor,,
Ivankiv,50.938645,29.894255,Ukraine,UA,Kyyivs’ka Oblast’,minor,,
Kolomyya,48.531152,25.036487,Ukraine,UA,Ivano-Frankivs’ka Oblast’,minor,,
Krasnokuts’k,50.066022,35.162754,Ukraine,UA,Kharkivs’ka Oblast’,minor,,
Horodok,49.784649,23.648061,Ukraine,UA,L’vivs’ka Oblast’,minor,,
Kryvyy Rih,47.909659,33.380438,Ukraine,UA,Dnipropetrovs’ka Oblast’,minor,,
Kalanchak,46.256228,33.2907,Ukraine,UA,Khersons’ka Oblast’,minor,,
Chudniv,50.052037,28.11745,Ukraine,UA,Zhytomyrs’ka Oblast’,minor,,
Chuhuyiv,49.835884,36.688028,Ukraine,UA,Kharkivs’ka Oblast’,minor,,
Velyka Pysarivka,50.424305,35.47989,Ukraine,UA,Sums’ka Oblast’,minor,,
Pryazovs’ke,46.734258,35.642511,Ukraine,UA,Zaporiz’ka Oblast’,minor,,
Kirovs’ke,45.229672,35.199866,Ukraine,UA,"Krym, Avtonomna Respublika",minor,,
Milove,49.375278,40.132222,Ukraine,UA,Luhans’ka Oblast’,minor,,
Beryslav,46.841522,33.42838,Ukraine,UA,Khersons’ka Oblast’,minor,,
Onufriyivka,48.907156,33.448686,Ukraine,UA,Kirovohrads’ka Oblast’,minor,,
Brats’ke,47.863598,31.583925,Ukraine,UA,Mykolayivs’ka Oblast’,minor,,
Pervomays’ke,45.717437,33.855955,Ukraine,UA,"Krym, Avtonomna Respublika",minor,,
Radekhiv,50.282488,24.64279,Ukraine,UA,L’vivs’ka Oblast’,minor,,
Bar,49.07717,27.682559,Ukraine,UA,Vinnyts’ka Oblast’,minor,,
Bohodukhiv,50.164661,35.527652,Ukraine,UA,Kharkivs’ka Oblast’,minor,,
Stryy,49.262228,23.856087,Ukraine,UA,L’vivs’ka Oblast’,minor,,
Krasyatychi,51.076358,29.64899,Ukraine,UA,Kyyivs’ka Oblast’,minor,,
Nosivka,50.931518,31.582825,Ukraine,UA,Chernihivs’ka Oblast’,minor,,
Volodarka,49.524836,29.912219,Ukraine,UA,Kyyivs’ka Oblast’,minor,,
Volochys’k,49.537476,26.215681,Ukraine,UA,Khmel’nyts’ka Oblast’,minor,,
Chaplynka,46.365071,33.540274,Ukraine,UA,Khersons’ka Oblast’,minor,,
Turiys’k,51.086445,24.522941,Ukraine,UA,Volyns’ka Oblast’,minor,,
Turka,49.154109,23.029673,Ukraine,UA,L’vivs’ka Oblast’,minor,,
Dobropillya,48.461472,37.085242,Ukraine,UA,Donets’ka Oblast’,minor,,
Lypova Dolyna,50.564281,33.797934,Ukraine,UA,Sums’ka Oblast’,minor,,
Haysyn,48.811429,29.389766,Ukraine,UA,Vinnyts’ka Oblast’,minor,,
Fastiv,50.0767,29.917704,Ukraine,UA,Kyyivs’ka Oblast’,minor,,
Rakhiv,48.0526,24.200889,Ukraine,UA,Zakarpats’ka Oblast’,minor,,
Shyshaky,49.876505,34.004731,Ukraine,UA,Poltavs’ka Oblast’,minor,,
Sverdlovs’k,48.089643,39.652429,Ukraine,UA,Luhans’ka Oblast’,minor,,
Dunayivtsi,49.020778,26.841217,Ukraine,UA,Khmel’nyts’ka Oblast’,minor,,
Bilohir”ya,50.00263,26.428244,Ukraine,UA,Khmel’nyts’ka Oblast’,minor,,
Krasnoperekops’k,45.957156,33.796499,Ukraine,UA,"Krym, Avtonomna Respublika",minor,,
Monastyrys’ka,49.089088,25.173266,Ukraine,UA,Ternopil’s’ka Oblast’,minor,,
Bereznehuvate,47.30783,32.84993,Ukraine,UA,Mykolayivs’ka Oblast’,minor,,
Slov”yans’k,48.841361,37.589484,Ukraine,UA,Donets’ka Oblast’,minor,,
Slov”yanoserbs’k,48.697794,38.981329,Ukraine,UA,Luhans’ka Oblast’,minor,,
Bobrynets’,48.058963,32.166411,Ukraine,UA,Kirovohrads’ka Oblast’,minor,,
Bilokurakyne,49.534099,38.73067,Ukraine,UA,Luhans’ka Oblast’,minor,,
Vyzhnytsya,48.248007,25.194524,Ukraine,UA,Chernivets’ka Oblast’,minor,,
Pereval’s’k,48.437789,38.843836,Ukraine,UA,Luhans’ka Oblast’,minor,,
Tsyurupyns’k,46.61842,32.718903,Ukraine,UA,Khersons’ka Oblast’,minor,,
Brody,50.087911,25.150269,Ukraine,UA,L’vivs’ka Oblast’,minor,,
Mlyniv,50.508996,25.616753,Ukraine,UA,Rivnens’ka Oblast’,minor,,
Krynychky,48.375511,34.46701,Ukraine,UA,Dnipropetrovs’ka Oblast’,minor,,
Trostyanets’,50.484778,34.965668,Ukraine,UA,Sums’ka Oblast’,minor,,
Trostyanets’,48.509613,29.234819,Ukraine,UA,Vinnyts’ka Oblast’,minor,,
Pishchanka,48.207267,28.886068,Ukraine,UA,Vinnyts’ka Oblast’,minor,,
Yavoriv,49.938639,23.382543,Ukraine,UA,L’vivs’ka Oblast’,minor,,
Zmiyiv,49.674527,36.347751,Ukraine,UA,Kharkivs’ka Oblast’,minor,,
Lebedyn,50.585182,34.484896,Ukraine,UA,Sums’ka Oblast’,minor,,
Kakhovka,46.813706,33.486977,Ukraine,UA,Khersons’ka Oblast’,minor,,
Shums’k,50.121571,26.114243,Ukraine,UA,Ternopil’s’ka Oblast’,minor,,
Kozova,49.435442,25.15086,Ukraine,UA,Ternopil’s’ka Oblast’,minor,,
Boryspil’,50.352691,30.955006,Ukraine,UA,Kyyivs’ka Oblast’,minor,,
Starobesheve,47.750378,38.030512,Ukraine,UA,Donets’ka Oblast’,minor,,
Novovorontsovka,47.500353,33.917485,Ukraine,UA,Khersons’ka Oblast’,minor,,
Buryn’,51.199121,33.83523,Ukraine,UA,Sums’ka Oblast’,minor,,
Myrhorod,49.968545,33.60886,Ukraine,UA,Poltavs’ka Oblast’,minor,,
P”yatykhatky,48.411006,33.70398,Ukraine,UA,Dnipropetrovs’ka Oblast’,minor,,
Nova Vodolaha,49.719011,35.865784,Ukraine,UA,Kharkivs’ka Oblast’,minor,,
Rokytne,51.279599,27.214004,Ukraine,UA,Rivnens’ka Oblast’,minor,,
Brusyliv,50.284486,29.526264,Ukraine,UA,Zhytomyrs’ka Oblast’,minor,,
Dykan’ka,49.825008,34.52787,Ukraine,UA,Poltavs’ka Oblast’,minor,,
Heniches’k,46.175921,34.803403,Ukraine,UA,Khersons’ka Oblast’,minor,,
Kreminna,49.049499,38.21792,Ukraine,UA,Luhans’ka Oblast’,minor,,
Shakhtars’k,48.056568,38.438257,Ukraine,UA,Donets’ka Oblast’,minor,,
Stanytsya Luhans’ka,48.654329,39.479433,Ukraine,UA,Luhans’ka Oblast’,minor,,
Lubny,50.016254,32.996938,Ukraine,UA,Poltavs’ka Oblast’,minor,,
Bolhrad,45.682621,28.614872,Ukraine,UA,Odes’ka Oblast’,minor,,
Solone,48.20805,34.872076,Ukraine,UA,Dnipropetrovs’ka Oblast’,minor,,
Khorol,49.783671,33.278331,Ukraine,UA,Poltavs’ka Oblast’,minor,,
Myronivka,49.660074,30.982246,Ukraine,UA,Kyyivs’ka Oblast’,minor,,
Zhydachiv,49.384678,24.142544,Ukraine,UA,L’vivs’ka Oblast’,minor,,
Sarny,51.337949,26.601913,Ukraine,UA,Rivnens’ka Oblast’,minor,,
Volovets’,48.713164,23.19126,Ukraine,UA,Zakarpats’ka Oblast’,minor,,
Apostolove,47.660028,33.713686,Ukraine,UA,Dnipropetrovs’ka Oblast’,minor,,
Lyuboml’,51.22601,24.037274,Ukraine,UA,Volyns’ka Oblast’,minor,,
Kropyvnyts’kyy,48.513199,32.259702,Ukraine,UA,Kirovohrads’ka Oblast’,admin,,
Polohy,47.484444,36.253611,Ukraine,UA,Zaporiz’ka Oblast’,minor,,
Tokmak,47.255218,35.71238,Ukraine,UA,Zaporiz’ka Oblast’,minor,,
Vesele,47.014791,34.915036,Ukraine,UA,Zaporiz’ka Oblast’,minor,,
Snihurivka,47.07579,32.805164,Ukraine,UA,Mykolayivs’ka Oblast’,minor,,
Oleksandrivka,48.963361,32.234925,Ukraine,UA,Kirovohrads’ka Oblast’,minor,,
Reni,45.457273,28.293171,Ukraine,UA,Odes’ka Oblast’,minor,,
Popil’nya,49.964652,29.448081,Ukraine,UA,Zhytomyrs’ka Oblast’,minor,,
Nemyriv,48.970761,28.837793,Ukraine,UA,Vinnyts’ka Oblast’,minor,,
Yelanets’,47.696823,31.852532,Ukraine,UA,Mykolayivs’ka Oblast’,minor,,
Mala Vyska,48.64308,31.636574,Ukraine,UA,Kirovohrads’ka Oblast’,minor,,
Tarashcha,49.558316,30.492592,Ukraine,UA,Kyyivs’ka Oblast’,minor,,
Zarichne,51.812603,26.129022,Ukraine,UA,Rivnens’ka Oblast’,minor,,
Zolochiv,49.805974,24.894357,Ukraine,UA,L’vivs’ka Oblast’,minor,,
Zolochiv,50.279848,35.981785,Ukraine,UA,Kharkivs’ka Oblast’,minor,,
Kalush,49.011872,24.373077,Ukraine,UA,Ivano-Frankivs’ka Oblast’,minor,,
Kalynivka,49.453887,28.526081,Ukraine,UA,Vinnyts’ka Oblast’,minor,,
Skole,49.037169,23.513457,Ukraine,UA,L’vivs’ka Oblast’,minor,,
Kotovs’k,47.75305,29.532053,Ukraine,UA,Odes’ka Oblast’,minor,,
Tel’manove,47.409942,38.024763,Ukraine,UA,Donets’ka Oblast’,minor,,
Berezhany,49.442315,24.932315,Ukraine,UA,Ternopil’s’ka Oblast’,minor,,
Hayvoron,48.339579,29.867911,Ukraine,UA,Kirovohrads’ka Oblast’,minor,,
Zastavna,48.523071,25.843686,Ukraine,UA,Chernivets’ka Oblast’,minor,,
Shchors,51.818646,31.94504,Ukraine,UA,Chernihivs’ka Oblast’,minor,,
Slavuta,50.301552,26.865061,Ukraine,UA,Khmel’nyts’ka Oblast’,minor,,
Bilhorod-Dnistrovs’kyy,46.1952,30.349382,Ukraine,UA,Odes’ka Oblast’,minor,,
Derazhnya,49.269198,27.433817,Ukraine,UA,Khmel’nyts’ka Oblast’,minor,,
Romny,50.751038,33.474713,Ukraine,UA,Sums’ka Oblast’,minor,,
Husyatyn,49.072627,26.2141,Ukraine,UA,Ternopil’s’ka Oblast’,minor,,
Novomyrhorod,48.781047,31.642042,Ukraine,UA,Kirovohrads’ka Oblast’,minor,,
Mohyliv-Podil’s’kyy,48.445983,27.798197,Ukraine,UA,Vinnyts’ka Oblast’,minor,,
Shpola,49.006872,31.394708,Ukraine,UA,Cherkas’ka Oblast’,minor,,
Verkhovyna,48.15571,24.791124,Ukraine,UA,Ivano-Frankivs’ka Oblast’,minor,,
Chervonoarmiys’k,50.467838,28.271304,Ukraine,UA,Zhytomyrs’ka Oblast’,minor,,
Rozhnyativ,48.935755,24.163792,Ukraine,UA,Ivano-Frankivs’ka Oblast’,minor,,
Horokhiv,50.501859,24.761485,Ukraine,UA,Volyns’ka Oblast’,minor,,
Tyvriv,49.014042,28.508458,Ukraine,UA,Vinnyts’ka Oblast’,minor,,
Kosiv,48.310708,25.095752,Ukraine,UA,Ivano-Frankivs’ka Oblast’,minor,,
Krolevets’,51.54775,33.384754,Ukraine,UA,Sums’ka Oblast’,minor,,
Pidvolochys’k,49.534717,26.145847,Ukraine,UA,Ternopil’s’ka Oblast’,minor,,
Yakymivka,46.699719,35.159156,Ukraine,UA,Zaporiz’ka Oblast’,minor,,
Pervomays’k,48.044331,30.850729,Ukraine,UA,Mykolayivs’ka Oblast’,minor,,
Zdolbuniv,50.520599,26.242513,Ukraine,UA,Rivnens’ka Oblast’,minor,,
Rozivka,47.384842,37.067922,Ukraine,UA,Zaporiz’ka Oblast’,minor,,
Kozelets’,50.913345,31.121398,Ukraine,UA,Chernihivs’ka Oblast’,minor,,
Kozel’shchyna,49.216821,33.848095,Ukraine,UA,Poltavs’ka Oblast’,minor,,
Semenivka,49.590311,33.180486,Ukraine,UA,Poltavs’ka Oblast’,minor,,
Varva,50.495034,32.719684,Ukraine,UA,Chernihivs’ka Oblast’,minor,,
Kaharlyk,49.862333,30.82815,Ukraine,UA,Kyyivs’ka Oblast’,minor,,
Ichnya,50.862576,32.394253,Ukraine,UA,Chernihivs’ka Oblast’,minor,,
Smila,49.22242,31.887138,Ukraine,UA,Cherkas’ka Oblast’,minor,,
Khotyn,48.506933,26.491214,Ukraine,UA,Chernivets’ka Oblast’,minor,,
Bilohirs’k,45.054617,34.601851,Ukraine,UA,"Krym, Avtonomna Respublika",minor,,
Korostyshiv,50.31723,29.056298,Ukraine,UA,Zhytomyrs’ka Oblast’,minor,,
Bashtanka,47.407188,32.438682,Ukraine,UA,Mykolayivs’ka Oblast’,minor,,
Sokyryany,48.447466,27.416781,Ukraine,UA,Chernivets’ka Oblast’,minor,,
Holovanivs’k,48.384004,30.461314,Ukraine,UA,Kirovohrads’ka Oblast’,minor,,
Chyhyryn,49.07018,32.678563,Ukraine,UA,Cherkas’ka Oblast’,minor,,
Borzna,51.254645,32.426901,Ukraine,UA,Chernihivs’ka Oblast’,minor,,
Svitlovods’k,49.048938,33.241063,Ukraine,UA,Kirovohrads’ka Oblast’,minor,,
Teplyk,48.665658,29.745035,Ukraine,UA,Vinnyts’ka Oblast’,minor,,
Horodyshche,49.284887,31.445134,Ukraine,UA,Cherkas’ka Oblast’,minor,,
Bilopillya,51.15016,34.312866,Ukraine,UA,Sums’ka Oblast’,minor,,
Krasnopillya,50.774583,35.259646,Ukraine,UA,Sums’ka Oblast’,minor,,
Terebovlya,49.301873,25.709974,Ukraine,UA,Ternopil’s’ka Oblast’,minor,,
Balakliya,49.462699,36.859508,Ukraine,UA,Kharkivs’ka Oblast’,minor,,
Amvrosiyivka,47.793485,38.47768,Ukraine,UA,Donets’ka Oblast’,minor,,
Anan’yiv,47.721061,29.945019,Ukraine,UA,Odes’ka Oblast’,minor,,
Ivanychi,50.638793,24.360026,Ukraine,UA,Volyns’ka Oblast’,minor,,
Synel’nykove,48.320445,35.51792,Ukraine,UA,Dnipropetrovs’ka Oblast’,minor,,
Khmil’nyk,49.555224,27.965751,Ukraine,UA,Vinnyts’ka Oblast’,minor,,
Nedryhayliv,50.83398,33.876256,Ukraine,UA,Sums’ka Oblast’,minor,,
Zhovkva,50.05825,23.972596,Ukraine,UA,L’vivs’ka Oblast’,minor,,
Yemil’chyne,50.873488,27.806035,Ukraine,UA,Zhytomyrs’ka Oblast’,minor,,
Pryluky,50.593235,32.387614,Ukraine,UA,Chernihivs’ka Oblast’,minor,,
Sakhnovshchyna,49.151664,35.871978,Ukraine,UA,Kharkivs’ka Oblast’,minor,,
Ovidiopol’,46.249984,30.44127,Ukraine,UA,Odes’ka Oblast’,minor,,
Tlumach,48.86403,25.003249,Ukraine,UA,Ivano-Frankivs’ka Oblast’,minor,,
Kolomak,49.839865,35.304415,Ukraine,UA,Kharkivs’ka Oblast’,minor,,
Barvinkove,48.909696,37.020511,Ukraine,UA,Kharkivs’ka Oblast’,minor,,
Kozyatyn,49.714312,28.833848,Ukraine,UA,Vinnyts’ka Oblast’,minor,,
Kazanka,47.846249,32.821771,Ukraine,UA,Mykolayivs’ka Oblast’,minor,,
Romaniv,50.148015,27.931243,Ukraine,UA,Zhytomyrs’ka Oblast’,minor,,
Snyatyn,48.446922,25.569371,Ukraine,UA,Ivano-Frankivs’ka Oblast’,minor,,
Velyka Lepetykha,47.175719,33.943625,Ukraine,UA,Khersons’ka Oblast’,minor,,
Popasna,48.633277,38.378037,Ukraine,UA,Luhans’ka Oblast’,minor,,
Tysmenytsya,48.90219,24.844815,Ukraine,UA,Ivano-Frankivs’ka Oblast’,minor,,
Novi Sanzhary,49.343954,34.310839,Ukraine,UA,Poltavs’ka Oblast’,minor,,
Bilyayivka,46.483191,30.216779,Ukraine,UA,Odes’ka Oblast’,minor,,
Pohrebyshche,49.486387,29.263613,Ukraine,UA,Vinnyts’ka Oblast’,minor,,
Halych,49.121792,24.72578,Ukraine,UA,Ivano-Frankivs’ka Oblast’,minor,,
Storozhynets’,48.164295,25.720285,Ukraine,UA,Chernivets’ka Oblast’,minor,,
Kitsman’,48.443571,25.766796,Ukraine,UA,Chernivets’ka Oblast’,minor,,
Kivertsi,50.834248,25.45821,Ukraine,UA,Volyns’ka Oblast’,minor,,
Sarata,46.019661,29.66567,Ukraine,UA,Odes’ka Oblast’,minor,,
Hola Prystan’,46.527195,32.524169,Ukraine,UA,Khersons’ka Oblast’,minor,,
Luhyny,51.082025,28.40057,Ukraine,UA,Zhytomyrs’ka Oblast’,minor,,
Bershad’,48.36782,29.517265,Ukraine,UA,Vinnyts’ka Oblast’,minor,,
Zin’kiv,50.208058,34.363763,Ukraine,UA,Poltavs’ka Oblast’,minor,,
Zhashkiv,49.245446,30.110204,Ukraine,UA,Cherkas’ka Oblast’,minor,,
Hornostayivka,47.007771,33.72899,Ukraine,UA,Khersons’ka Oblast’,minor,,
Izyum,49.208754,37.248485,Ukraine,UA,Kharkivs’ka Oblast’,minor,,
Izyaslav,50.119467,26.821254,Ukraine,UA,Khmel’nyts’ka Oblast’,minor,,
Vil’nyans’k,47.94381,35.435388,Ukraine,UA,Zaporiz’ka Oblast’,minor,,
Hoshcha,50.600295,26.674347,Ukraine,UA,Rivnens’ka Oblast’,minor,,
Lypovets’,49.229644,29.055551,Ukraine,UA,Vinnyts’ka Oblast’,minor,,
Obukhiv,50.106892,30.618475,Ukraine,UA,Kyyivs’ka Oblast’,minor,,
Petrykivka,48.729325,34.633583,Ukraine,UA,Dnipropetrovs’ka Oblast’,minor,,
Arbuzynka,47.909719,31.31963,Ukraine,UA,Mykolayivs’ka Oblast’,minor,,
Korsun’-Shevchenkivs’kyy,49.418938,31.258651,Ukraine,UA,Cherkas’ka Oblast’,minor,,
Chernihivka,47.199922,36.161483,Ukraine,UA,Zaporiz’ka Oblast’,minor,,
Chernivtsi,48.542255,28.114727,Ukraine,UA,Vinnyts’ka Oblast’,minor,,
Rokytne,49.686653,30.473838,Ukraine,UA,Kyyivs’ka Oblast’,minor,,
Shyroke,47.69173,33.257145,Ukraine,UA,Dnipropetrovs’ka Oblast’,minor,,
Yahotyn,50.279751,31.762461,Ukraine,UA,Kyyivs’ka Oblast’,minor,,
Stavyshche,49.391239,30.190221,Ukraine,UA,Kyyivs’ka Oblast’,minor,,
Borshchiv,48.803322,26.043466,Ukraine,UA,Ternopil’s’ka Oblast’,minor,,
Orzhytsya,49.790101,32.699408,Ukraine,UA,Poltavs’ka Oblast’,minor,,
Reshetylivka,49.565011,34.078154,Ukraine,UA,Poltavs’ka Oblast’,minor,,
Sribne,50.663844,32.918668,Ukraine,UA,Chernihivs’ka Oblast’,minor,,
Man’kivka,48.96349,30.333659,Ukraine,UA,Cherkas’ka Oblast’,minor,,
Zboriv,49.664839,25.140965,Ukraine,UA,Ternopil’s’ka Oblast’,minor,,
Mostys’ka,49.792267,23.151249,Ukraine,UA,L’vivs’ka Oblast’,minor,,
Bakhchysaray,44.755246,33.857819,Ukraine,UA,"Krym, Avtonomna Respublika",minor,,
Vradiyivka,47.861948,30.591953,Ukraine,UA,Mykolayivs’ka Oblast’,minor,,
Dolyns’ka,48.115942,32.769456,Ukraine,UA,Kirovohrads’ka Oblast’,minor,,
Berezivka,47.204291,30.907801,Ukraine,UA,Odes’ka Oblast’,minor,,
Khrystynivka,48.824883,29.968055,Ukraine,UA,Cherkas’ka Oblast’,minor,,
Yarmolyntsi,49.192363,26.837252,Ukraine,UA,Khmel’nyts’ka Oblast’,minor,,
Vasylivka,47.436944,35.274167,Ukraine,UA,Zaporiz’ka Oblast’,minor,,
Ordzhonikidze,47.667625,34.059574,Ukraine,UA,Dnipropetrovs’ka Oblast’,minor,,
Shats’k,51.502084,23.93806,Ukraine,UA,Volyns’ka Oblast’,minor,,
Volodymyrets’,51.421295,26.144688,Ukraine,UA,Rivnens’ka Oblast’,minor,,
Novyy Buh,47.693084,32.521601,Ukraine,UA,Mykolayivs’ka Oblast’,minor,,
Stara Vyzhivka,51.437625,24.439971,Ukraine,UA,Volyns’ka Oblast’,minor,,
Chortkiv,49.017087,25.798045,Ukraine,UA,Ternopil’s’ka Oblast’,minor,,
Stara Synyava,49.603177,27.619091,Ukraine,UA,Khmel’nyts’ka Oblast’,minor,,
Znam”yanka,48.712778,32.664722,Ukraine,UA,Kirovohrads’ka Oblast’,minor,,
Zalishchyky,48.643314,25.737944,Ukraine,UA,Ternopil’s’ka Oblast’,minor,,
Orikhiv,47.567311,35.785748,Ukraine,UA,Zaporiz’ka Oblast’,minor,,
Illintsi,49.104791,29.217732,Ukraine,UA,Vinnyts’ka Oblast’,minor,,
Kotel’va,50.068645,34.758618,Ukraine,UA,Poltavs’ka Oblast’,minor,,
Shyryayeve,47.380518,30.196385,Ukraine,UA,Odes’ka Oblast’,minor,,
Chutove,49.710431,35.165709,Ukraine,UA,Poltavs’ka Oblast’,minor,,
Velykyy Burluk,50.061695,37.383728,Ukraine,UA,Kharkivs’ka Oblast’,minor,,
Velykyy Bereznyy,48.897208,22.460516,Ukraine,UA,Zakarpats’ka Oblast’,minor,,
Kryzhopil’,48.382889,28.866217,Ukraine,UA,Vinnyts’ka Oblast’,minor,,
Prymors’k,46.734786,36.344246,Ukraine,UA,Zaporiz’ka Oblast’,minor,,
Starobil’s’k,49.278321,38.910692,Ukraine,UA,Luhans’ka Oblast’,minor,,
Lyubar,49.92045,27.75918,Ukraine,UA,Zhytomyrs’ka Oblast’,minor,,
Katerynopil’,48.955299,30.968234,Ukraine,UA,Cherkas’ka Oblast’,minor,,
Vil’shanka,48.236038,30.876081,Ukraine,UA,Kirovohrads’ka Oblast’,minor,,
Sambir,49.518301,23.197525,Ukraine,UA,L’vivs’ka Oblast’,minor,,
Ivanivka,46.72082,34.552982,Ukraine,UA,Khersons’ka Oblast’,minor,,
Ivanivka,46.975687,30.469983,Ukraine,UA,Odes’ka Oblast’,minor,,
Makariv,50.464077,29.811277,Ukraine,UA,Kyyivs’ka Oblast’,minor,,
Manhush,47.055817,37.310677,Ukraine,UA,Donets’ka Oblast’,minor,,
Zvenyhorodka,49.078664,30.967545,Ukraine,UA,Cherkas’ka Oblast’,minor,,
Vynohradiv,48.144201,23.02629,Ukraine,UA,Zakarpats’ka Oblast’,minor,,
Semenivka,52.178273,32.581827,Ukraine,UA,Chernihivs’ka Oblast’,minor,,
Perechyn,48.736157,22.481999,Ukraine,UA,Zakarpats’ka Oblast’,minor,,
Sovyets’kyy,45.34267,34.924631,Ukraine,UA,"Krym, Avtonomna Respublika",minor,,
Narodychi,51.202858,29.082281,Ukraine,UA,Zhytomyrs’ka Oblast’,minor,,
Markivka,49.522896,39.570548,Ukraine,UA,Luhans’ka Oblast’,minor,,
Krasnyy Lyman,48.988365,37.802247,Ukraine,UA,Donets’ka Oblast’,minor,,
Sharhorod,48.738346,28.084969,Ukraine,UA,Vinnyts’ka Oblast’,minor,,
Nyzhn’ohirs’kyy,45.447894,34.738392,Ukraine,UA,"Krym, Avtonomna Respublika",minor,,
Bilozerka,46.624798,32.442509,Ukraine,UA,Khersons’ka Oblast’,minor,,
Tyachiv,48.011795,23.570611,Ukraine,UA,Zakarpats’ka Oblast’,minor,,
Murovani Kurylivtsi,48.723477,27.518919,Ukraine,UA,Vinnyts’ka Oblast’,minor,,
Vin’kivtsi,49.034617,27.236172,Ukraine,UA,Khmel’nyts’ka Oblast’,minor,,
Mezhova,48.253177,36.734685,Ukraine,UA,Dnipropetrovs’ka Oblast’,minor,,
Polonne,50.124238,27.510874,Ukraine,UA,Khmel’nyts’ka Oblast’,minor,,
Yampil’,48.242404,28.281947,Ukraine,UA,Vinnyts’ka Oblast’,minor,,
Hrebinka,50.117116,32.436098,Ukraine,UA,Poltavs’ka Oblast’,minor,,
Peremyshlyany,49.665229,24.558457,Ukraine,UA,L’vivs’ka Oblast’,minor,,
Skadovs’k,46.116102,32.911237,Ukraine,UA,Khersons’ka Oblast’,minor,,
Krasnodon,48.292352,39.739213,Ukraine,UA,Luhans’ka Oblast’,minor,,
Novoarkhanhel’s’k,48.658029,30.818214,Ukraine,UA,Kirovohrads’ka Oblast’,minor,,
Seredyna-Buda,52.189025,34.036392,Ukraine,UA,Sums’ka Oblast’,minor,,
Pavlohrad,48.534261,35.870985,Ukraine,UA,Dnipropetrovs’ka Oblast’,minor,,
Nova Odesa,47.307783,31.785063,Ukraine,UA,Mykolayivs’ka Oblast’,minor,,
Dolyna,48.973302,24.00944,Ukraine,UA,Ivano-Frankivs’ka Oblast’,minor,,
Bus’k,49.965484,24.612269,Ukraine,UA,L’vivs’ka Oblast’,minor,,
Novoukrayinka,48.326353,31.528521,Ukraine,UA,Kirovohrads’ka Oblast’,minor,,
Irshava,48.31667,23.038459,Ukraine,UA,Zakarpats’ka Oblast’,minor,,
Shepetivka,50.185447,27.063647,Ukraine,UA,Khmel’nyts’ka Oblast’,minor,,
Pokrovs’ke,47.978518,36.225599,Ukraine,UA,Dnipropetrovs’ka Oblast’,minor,,
Ovruch,51.324595,28.803514,Ukraine,UA,Zhytomyrs’ka Oblast’,minor,,
Derhachi,50.106586,36.121116,Ukraine,UA,Kharkivs’ka Oblast’,minor,,
Sokal’,50.474378,24.282882,Ukraine,UA,L’vivs’ka Oblast’,minor,,
Lanivtsi,49.863275,26.09082,Ukraine,UA,Ternopil’s’ka Oblast’,minor,,
Volnovakha,47.601034,37.496744,Ukraine,UA,Donets’ka Oblast’,minor,,
Chornomors’ke,45.506572,32.697765,Ukraine,UA,"Krym, Avtonomna Respublika",minor,,
Novomoskovs’k,48.637985,35.245477,Ukraine,UA,Dnipropetrovs’ka Oblast’,minor,,
Horodenka,48.672738,25.50163,Ukraine,UA,Ivano-Frankivs’ka Oblast’,minor,,
Mar”yinka,47.945271,37.505436,Ukraine,UA,Donets’ka Oblast’,minor,,
Hlukhiv,51.678221,33.916204,Ukraine,UA,Sums’ka Oblast’,minor,,
Ochakiv,46.612829,31.549822,Ukraine,UA,Mykolayivs’ka Oblast’,minor,,
Oleksandrivka,48.708368,36.91561,Ukraine,UA,Donets’ka Oblast’,minor,,
Berezanka,46.852615,31.388025,Ukraine,UA,Mykolayivs’ka Oblast’,minor,,
Lyubashivka,47.837157,30.259763,Ukraine,UA,Odes’ka Oblast’,minor,,
Chemerivtsi,49.01179,26.342035,Ukraine,UA,Khmel’nyts’ka Oblast’,minor,,
Lyubeshiv,51.765346,25.5142,Ukraine,UA,Volyns’ka Oblast’,minor,,
Berehove,48.20555,22.644176,Ukraine,UA,Zakarpats’ka Oblast’,minor,,
Savran’,48.13219,30.082466,Ukraine,UA,Odes’ka Oblast’,minor,,
Putyvl’,51.337449,33.870659,Ukraine,UA,Sums’ka Oblast’,minor,,
Kuybysheve,47.358002,36.649075,Ukraine,UA,Zaporiz’ka Oblast’,minor,,
Demydivka,50.428142,25.336187,Ukraine,UA,Rivnens’ka Oblast’,minor,,
Mykolayivka,47.541348,30.756146,Ukraine,UA,Odes’ka Oblast’,minor,,
Shevchenkove,49.695853,37.173484,Ukraine,UA,Kharkivs’ka Oblast’,minor,,
Buchach,49.062539,25.387981,Ukraine,UA,Ternopil’s’ka Oblast’,minor,,
Bobrovytsya,50.746927,31.394802,Ukraine,UA,Chernihivs’ka Oblast’,minor,,
Hertsa,48.150621,26.259913,Ukraine,UA,Chernivets’ka Oblast’,minor,,
Rozhyshche,50.915425,25.269055,Ukraine,UA,Volyns’ka Oblast’,minor,,
Hadyach,50.371118,33.990988,Ukraine,UA,Poltavs’ka Oblast’,minor,,
Pidhaytsi,49.268535,25.133412,Ukraine,UA,Ternopil’s’ka Oblast’,minor,,
Tetiyiv,49.376698,29.664738,Ukraine,UA,Kyyivs’ka Oblast’,minor,,
Staryy Sambir,49.438556,23.000558,Ukraine,UA,L’vivs’ka Oblast’,minor,,
Novomykolayivka,47.978099,35.910195,Ukraine,UA,Zaporiz’ka Oblast’,minor,,
Rozdil’na,46.851755,30.079543,Ukraine,UA,Odes’ka Oblast’,minor,,
Pervomays’kyy,49.387419,36.214707,Ukraine,UA,Kharkivs’ka Oblast’,minor,,
Skvyra,49.731771,29.665694,Ukraine,UA,Kyyivs’ka Oblast’,minor,,
Kominternivs’ke,46.8128,30.939339,Ukraine,UA,Odes’ka Oblast’,minor,,
Monastyryshche,48.990902,29.8047,Ukraine,UA,Cherkas’ka Oblast’,minor,,
Rohatyn,49.409003,24.609265,Ukraine,UA,Ivano-Frankivs’ka Oblast’,minor,,
Kodyma,48.09875,29.12463,Ukraine,UA,Odes’ka Oblast’,minor,,
Mykhaylivka,47.272347,35.222352,Ukraine,UA,Zaporiz’ka Oblast’,minor,,
Vovchans’k,50.290785,36.94108,Ukraine,UA,Kharkivs’ka Oblast’,minor,,
Ustynivka,47.95507,32.536738,Ukraine,UA,Kirovohrads’ka Oblast’,minor,,
Koryukivka,51.768772,32.24813,Ukraine,UA,Chernihivs’ka Oblast’,minor,,
Bohorodchany,48.806996,24.538342,Ukraine,UA,Ivano-Frankivs’ka Oblast’,minor,,
Mykolayiv,49.523723,23.985219,Ukraine,UA,L’vivs’ka Oblast’,minor,,
Antratsyt,48.115032,39.091283,Ukraine,UA,Luhans’ka Oblast’,minor,,
Volodars’k-Volyns’kyy,50.597645,28.442999,Ukraine,UA,Zhytomyrs’ka Oblast’,minor,,
Volodars’ke,47.20533,37.321386,Ukraine,UA,Donets’ka Oblast’,minor,,
Krasni Okny,47.540443,29.460013,Ukraine,UA,Odes’ka Oblast’,minor,,
Chornobay,49.666438,32.329325,Ukraine,UA,Cherkas’ka Oblast’,minor,,
Radyvyliv,50.129938,25.255764,Ukraine,UA,Rivnens’ka Oblast’,minor,,
Baryshivka,50.36098,31.32173,Ukraine,UA,Kyyivs’ka Oblast’,minor,,
Velyka Mykhaylivka,47.079711,29.857533,Ukraine,UA,Odes’ka Oblast’,minor,,
Mahdalynivka,48.921108,34.914908,Ukraine,UA,Dnipropetrovs’ka Oblast’,minor,,
Tsarychanka,48.936973,34.478596,Ukraine,UA,Dnipropetrovs’ka Oblast’,minor,,
Borova,49.377695,37.621363,Ukraine,UA,Kharkivs’ka Oblast’,minor,,
Kam”yanka,49.031801,32.103964,Ukraine,UA,Cherkas’ka Oblast’,minor,,
Novopskov,49.546402,39.089867,Ukraine,UA,Luhans’ka Oblast’,minor,,
Lozova,48.889369,36.317546,Ukraine,UA,Kharkivs’ka Oblast’,minor,,
Dobrovelychkivka,48.387778,31.180278,Ukraine,UA,Kirovohrads’ka Oblast’,minor,,
Kostyantynivka,48.527701,37.706905,Ukraine,UA,Donets’ka Oblast’,minor,,
Pyryatyn,50.242421,32.506211,Ukraine,UA,Poltavs’ka Oblast’,minor,,
Zachepylivka,49.193846,35.239433,Ukraine,UA,Kharkivs’ka Oblast’,minor,,
Mashivka,49.443077,34.866875,Ukraine,UA,Poltavs’ka Oblast’,minor,,
Dubno,50.416937,25.734325,Ukraine,UA,Rivnens’ka Oblast’,minor,,
Berezne,51.000942,26.751061,Ukraine,UA,Rivnens’ka Oblast’,minor,,
Lokhvytsya,50.367757,33.260244,Ukraine,UA,Poltavs’ka Oblast’,minor,,
Tal’ne,48.888772,30.694819,Ukraine,UA,Cherkas’ka Oblast’,minor,,
Talalayivka,50.839127,33.143741,Ukraine,UA,Chernihivs’ka Oblast’,minor,,
Pustomyty,49.715321,23.912951,Ukraine,UA,L’vivs’ka Oblast’,minor,,
Novohrad-Volyns’kyy,50.59412,27.616503,Ukraine,UA,Zhytomyrs’ka Oblast’,minor,,
Artsyz,45.991936,29.418236,Ukraine,UA,Odes’ka Oblast’,minor,,
Blyznyuky,48.857747,36.555046,Ukraine,UA,Kharkivs’ka Oblast’,minor,,
Andrushivka,50.022878,29.020226,Ukraine,UA,Zhytomyrs’ka Oblast’,minor,,
Dvorichna,49.850187,37.682621,Ukraine,UA,Kharkivs’ka Oblast’,minor,,
Kam”yanka-Buz’ka,50.106546,24.344509,Ukraine,UA,L’vivs’ka Oblast’,minor,,
Ruzhyn,49.722804,29.204548,Ukraine,UA,Zhytomyrs’ka Oblast’,minor,,
Letychiv,49.382631,27.630511,Ukraine,UA,Khmel’nyts’ka Oblast’,minor,,
Nadvirna,48.634799,24.569364,Ukraine,UA,Ivano-Frankivs’ka Oblast’,minor,,
Lutuhyne,48.40507,39.226754,Ukraine,UA,Luhans’ka Oblast’,minor,,
Lenine,45.298571,35.777083,Ukraine,UA,"Krym, Avtonomna Respublika",minor,,
Dubrovytsya,51.57438,26.565034,Ukraine,UA,Rivnens’ka Oblast’,minor,,
Starokostyantyniv,49.757637,27.20342,Ukraine,UA,Khmel’nyts’ka Oblast’,minor,,
Korets’,50.616545,27.16055,Ukraine,UA,Rivnens’ka Oblast’,minor,,
Tatarbunary,45.837308,29.614243,Ukraine,UA,Odes’ka Oblast’,minor,,
Bilovods’k,49.20543,39.582793,Ukraine,UA,Luhans’ka Oblast’,minor,,
Kiliya,45.455181,29.263672,Ukraine,UA,Odes’ka Oblast’,minor,,
Radomyshl’,50.496132,29.229108,Ukraine,UA,Zhytomyrs’ka Oblast’,minor,,
Teofipol’,49.838182,26.414332,Ukraine,UA,Khmel’nyts’ka Oblast’,minor,,
Krasnohvardiys’ke,45.502711,34.301342,Ukraine,UA,"Krym, Avtonomna Respublika",minor,,
Balta,47.935476,29.619822,Ukraine,UA,Odes’ka Oblast’,minor,,
Kaniv,49.751825,31.460044,Ukraine,UA,Cherkas’ka Oblast’,minor,,
Verkhn’odniprovs’k,48.652423,34.334571,Ukraine,UA,Dnipropetrovs’ka Oblast’,minor,,
Horodok,49.163739,26.58394,Ukraine,UA,Khmel’nyts’ka Oblast’,minor,,
Hlyboka,48.089711,25.929333,Ukraine,UA,Chernivets’ka Oblast’,minor,,
Malyn,50.772332,29.238328,Ukraine,UA,Zhytomyrs’ka Oblast’,minor,,
Kremenets’,50.096928,25.724586,Ukraine,UA,Ternopil’s’ka Oblast’,minor,,
Rozdol’ne,45.770828,33.487769,Ukraine,UA,"Krym, Avtonomna Respublika",minor,,
Velyka Bahachka,49.791162,33.72258,Ukraine,UA,Poltavs’ka Oblast’,minor,,
Velyka Oleksandrivka,47.319691,33.303734,Ukraine,UA,Khersons’ka Oblast’,minor,,
Velyka Bilozerka,47.277556,34.706158,Ukraine,UA,Zaporiz’ka Oblast’,minor,,
Novhorodka,48.365061,32.657846,Ukraine,UA,Kirovohrads’ka Oblast’,minor,,
Novhorod-Sivers’kyy,52.005772,33.261498,Ukraine,UA,Chernihivs’ka Oblast’,minor,,
Hulyaypole,47.663893,36.256326,Ukraine,UA,Zaporiz’ka Oblast’,minor,,
Nova Ushytsya,48.837157,27.274337,Ukraine,UA,Khmel’nyts’ka Oblast’,minor,,
Hlobyne,49.387837,33.259587,Ukraine,UA,Poltavs’ka Oblast’,minor,,
Sosnytsya,51.523873,32.499849,Ukraine,UA,Chernihivs’ka Oblast’,minor,,
Bakhmach,51.200933,32.774507,Ukraine,UA,Chernihivs’ka Oblast’,minor,,
Petrove,48.324674,33.256166,Ukraine,UA,Kirovohrads’ka Oblast’,minor,,
Yasynuvata,48.129804,37.859402,Ukraine,UA,Donets’ka Oblast’,minor,,
Vyshhorod,50.584758,30.489799,Ukraine,UA,Kyyivs’ka Oblast’,minor,,
Enerhodar,47.503635,34.630044,Ukraine,UA,Zaporiz’ka Oblast’,minor,,
Yur”yivka,48.737479,36.019875,Ukraine,UA,Dnipropetrovs’ka Oblast’,minor,,
Olevs’k,51.22482,27.652281,Ukraine,UA,Zhytomyrs’ka Oblast’,minor,,
Kam”yanka-Dniprovs’ka,47.484813,34.41146,Ukraine,UA,Zaporiz’ka Oblast’,minor,,
Kamin’-Kashyrs’kyy,51.62412,24.958641,Ukraine,UA,Volyns’ka Oblast’,minor,,
Novoselytsya,48.219314,26.26531,Ukraine,UA,Chernivets’ka Oblast’,minor,,
Ripky,51.801046,31.083827,Ukraine,UA,Chernihivs’ka Oblast’,minor,,
Manevychi,51.294052,25.534356,Ukraine,UA,Volyns’ka Oblast’,minor,,
Zbarazh,49.663574,25.776162,Ukraine,UA,Ternopil’s’ka Oblast’,minor,,
Krasnohrad,49.38009,35.441861,Ukraine,UA,Kharkivs’ka Oblast’,minor,,
Zhmerynka,49.03705,28.112013,Ukraine,UA,Vinnyts’ka Oblast’,minor,,
Novotroyits’ke,46.355601,34.332718,Ukraine,UA,Khersons’ka Oblast’,minor,,
